{
  "place": [
    {
      "name": "City Palace Udaipur",
      "contactNumber": "999999999",
      "address": "Udaipur",
      "city": "Udaipur",
      "state": "Rajasthan",
      "pincode": "666666",
      "latitude": null,
      "longitude": null,
      "costAdult": 70,
      "costKid": 40,
      "id": 1
    },
    {
      "name": "Kakariya Lake ",
      "contactNumber": "9879910007",
      "address": "Ahmedabad",
      "city": "Ahmedabad",
      "state": "Gujarat",
      "pincode": "360003",
      "latitude": 45.89,
      "longitude": 56.78,
      "costAdult": 60,
      "costKid": 30,
      "id": 5
    },
    {
      "name": "Hawa Mahel",
      "contactNumber": "9898989898",
      "address": "Jaipur",
      "city": "Jaipur",
      "state": "Gujarat",
      "pincode": "360003",
      "latitude": 45.9,
      "longitude": 67.12,
      "costAdult": 100,
      "costKid": 45,
      "id": 6
    }
  ],
  "hotel": [
    {
      "name": "Hotel Udai Palace",
      "contactNumber": "9879910007",
      "address": "Udaipur",
      "city": "Udaipur",
      "state": "Rajasthan",
      "pincode": "676767",
      "latitude": 45.78,
      "longitude": null,
      "cost": 10000,
      "id": 1
    },
    {
      "name": "Hotel Pichola Haveli",
      "contactNumber": "9999999999",
      "address": "Udaipur",
      "city": "Udaipur",
      "state": "Rajasthan",
      "pincode": "360003",
      "latitude": 67.9,
      "longitude": null,
      "cost": 6000,
      "id": 2
    },
    {
      "name": "Le Pension Kesar Vilas",
      "contactNumber": "9797979797",
      "address": "Udaipur",
      "city": "Udaipur",
      "state": "Rajasthan",
      "pincode": "360003",
      "latitude": null,
      "longitude": null,
      "cost": 4000,
      "id": 5
    }
  ],
  "transfer": [
    {
      "name": "Rajkot to Udaipur",
      "source": "Rajkot",
      "destination": "Udaipur",
      "noOfKms": "475",
      "charge": "15",
      "id": 1
    },
    {
      "name": "Udaipur to Jodhpur",
      "source": "Udaipur ",
      "destination": "Jodhpur",
      "noOfKms": "475",
      "charge": "13",
      "id": 2
    }
  ]
}